[
  {
    "id": "R001",
    "name": "Jamnagar → Rotterdam",
    "origin": "Jamnagar",
    "originLat": 22.457,
    "originLon": 70.067,
    "destination": "Rotterdam",
    "destLat": 51.922,
    "destLon": 4.479,
    "distanceNM": 6200,
    "typicalDurationDays": 18,
    "waypoints": [
      { "name": "Jamnagar", "lat": 22.457, "lon": 70.067 },
      { "name": "Arabian Sea", "lat": 18.0, "lon": 62.0 },
      { "name": "Gulf of Aden", "lat": 12.8, "lon": 45.0 },
      { "name": "Bab el-Mandeb", "lat": 12.6, "lon": 43.3 },
      { "name": "Red Sea", "lat": 20.0, "lon": 38.5 },
      { "name": "Suez Canal", "lat": 30.0, "lon": 32.3 },
      { "name": "Mediterranean", "lat": 35.5, "lon": 18.0 },
      { "name": "Strait of Gibraltar", "lat": 35.97, "lon": -5.5 },
      { "name": "Bay of Biscay", "lat": 45.0, "lon": -5.0 },
      { "name": "English Channel", "lat": 50.0, "lon": 0.0 },
      { "name": "Rotterdam", "lat": 51.922, "lon": 4.479 }
    ],
    "cargoTypes": ["Gasoline", "Diesel", "Naphtha", "Jet Fuel"],
    "recommendedVesselTypes": ["LR2", "LR1", "Suezmax"],
    "riskFactors": ["Gulf of Aden - Piracy Alert Zone", "Suez Canal - Congestion possible"],
    "canalTransit": "Suez Canal"
  },
  {
    "id": "R002",
    "name": "Ras Tanura → Jamnagar",
    "origin": "Ras Tanura",
    "originLat": 26.635,
    "originLon": 50.155,
    "destination": "Jamnagar",
    "destLat": 22.457,
    "destLon": 70.067,
    "distanceNM": 1400,
    "typicalDurationDays": 4,
    "waypoints": [
      { "name": "Ras Tanura", "lat": 26.635, "lon": 50.155 },
      { "name": "Strait of Hormuz", "lat": 26.57, "lon": 56.25 },
      { "name": "Gulf of Oman", "lat": 24.5, "lon": 59.0 },
      { "name": "Arabian Sea", "lat": 22.0, "lon": 65.0 },
      { "name": "Jamnagar", "lat": 22.457, "lon": 70.067 }
    ],
    "cargoTypes": ["Crude Oil", "Condensate"],
    "recommendedVesselTypes": ["VLCC", "Suezmax"],
    "riskFactors": ["Strait of Hormuz - Geopolitical sensitivity"],
    "canalTransit": null
  },
  {
    "id": "R003",
    "name": "Bonny Terminal → Rotterdam",
    "origin": "Bonny Terminal",
    "originLat": 4.427,
    "originLon": 7.152,
    "destination": "Rotterdam",
    "destLat": 51.922,
    "destLon": 4.479,
    "distanceNM": 5100,
    "typicalDurationDays": 15,
    "waypoints": [
      { "name": "Bonny Terminal", "lat": 4.427, "lon": 7.152 },
      { "name": "Gulf of Guinea", "lat": 3.5, "lon": 3.0 },
      { "name": "West Africa Coast", "lat": 10.0, "lon": -10.0 },
      { "name": "Canary Islands", "lat": 28.1, "lon": -15.4 },
      { "name": "Bay of Biscay", "lat": 45.0, "lon": -5.0 },
      { "name": "English Channel", "lat": 50.0, "lon": 0.0 },
      { "name": "Rotterdam", "lat": 51.922, "lon": 4.479 }
    ],
    "cargoTypes": ["Crude Oil", "Bonny Light"],
    "recommendedVesselTypes": ["Suezmax", "VLCC"],
    "riskFactors": ["Gulf of Guinea - Piracy Alert Zone"],
    "canalTransit": null
  },
  {
    "id": "R004",
    "name": "Ras Tanura → Houston",
    "origin": "Ras Tanura",
    "originLat": 26.635,
    "originLon": 50.155,
    "destination": "Houston",
    "destLat": 29.748,
    "destLon": -95.273,
    "distanceNM": 10800,
    "typicalDurationDays": 30,
    "waypoints": [
      { "name": "Ras Tanura", "lat": 26.635, "lon": 50.155 },
      { "name": "Strait of Hormuz", "lat": 26.57, "lon": 56.25 },
      { "name": "Arabian Sea", "lat": 18.0, "lon": 60.0 },
      { "name": "Cape of Good Hope", "lat": -34.357, "lon": 18.474 },
      { "name": "South Atlantic", "lat": -10.0, "lon": -20.0 },
      { "name": "Caribbean", "lat": 15.0, "lon": -65.0 },
      { "name": "Gulf of Mexico", "lat": 25.0, "lon": -88.0 },
      { "name": "Houston", "lat": 29.748, "lon": -95.273 }
    ],
    "cargoTypes": ["Crude Oil"],
    "recommendedVesselTypes": ["VLCC"],
    "riskFactors": ["Cape of Good Hope - Rough seas", "Long voyage - Weather routing recommended"],
    "canalTransit": null
  },
  {
    "id": "R005",
    "name": "Jamnagar → Singapore",
    "origin": "Jamnagar",
    "originLat": 22.457,
    "originLon": 70.067,
    "destination": "Singapore",
    "destLat": 1.264,
    "destLon": 103.820,
    "distanceNM": 3600,
    "typicalDurationDays": 10,
    "waypoints": [
      { "name": "Jamnagar", "lat": 22.457, "lon": 70.067 },
      { "name": "Arabian Sea", "lat": 15.0, "lon": 73.0 },
      { "name": "Laccadive Sea", "lat": 10.0, "lon": 76.0 },
      { "name": "Sri Lanka", "lat": 7.0, "lon": 80.0 },
      { "name": "Bay of Bengal", "lat": 5.0, "lon": 88.0 },
      { "name": "Strait of Malacca", "lat": 2.5, "lon": 100.0 },
      { "name": "Singapore", "lat": 1.264, "lon": 103.820 }
    ],
    "cargoTypes": ["Diesel", "Gasoline", "Naphtha", "Petrochemicals"],
    "recommendedVesselTypes": ["LR2", "LR1", "MR"],
    "riskFactors": ["Strait of Malacca - High traffic density"],
    "canalTransit": null
  },
  {
    "id": "R006",
    "name": "Bonny Terminal → Jamnagar",
    "origin": "Bonny Terminal",
    "originLat": 4.427,
    "originLon": 7.152,
    "destination": "Jamnagar",
    "destLat": 22.457,
    "destLon": 70.067,
    "distanceNM": 5800,
    "typicalDurationDays": 17,
    "waypoints": [
      { "name": "Bonny Terminal", "lat": 4.427, "lon": 7.152 },
      { "name": "Gulf of Guinea", "lat": 0.0, "lon": 5.0 },
      { "name": "South Atlantic", "lat": -10.0, "lon": 15.0 },
      { "name": "Cape of Good Hope", "lat": -34.357, "lon": 18.474 },
      { "name": "Mozambique Channel", "lat": -20.0, "lon": 40.0 },
      { "name": "Arabian Sea", "lat": 12.0, "lon": 58.0 },
      { "name": "Jamnagar", "lat": 22.457, "lon": 70.067 }
    ],
    "cargoTypes": ["Crude Oil", "Bonny Light"],
    "recommendedVesselTypes": ["VLCC", "Suezmax"],
    "riskFactors": ["Gulf of Guinea - Piracy Alert Zone", "Cape of Good Hope - Rough seas"],
    "canalTransit": null
  },
  {
    "id": "R007",
    "name": "Rotterdam → Singapore",
    "origin": "Rotterdam",
    "originLat": 51.922,
    "originLon": 4.479,
    "destination": "Singapore",
    "destLat": 1.264,
    "destLon": 103.820,
    "distanceNM": 8400,
    "typicalDurationDays": 24,
    "waypoints": [
      { "name": "Rotterdam", "lat": 51.922, "lon": 4.479 },
      { "name": "English Channel", "lat": 50.0, "lon": 0.0 },
      { "name": "Bay of Biscay", "lat": 45.0, "lon": -5.0 },
      { "name": "Strait of Gibraltar", "lat": 35.97, "lon": -5.5 },
      { "name": "Mediterranean", "lat": 35.5, "lon": 18.0 },
      { "name": "Suez Canal", "lat": 30.0, "lon": 32.3 },
      { "name": "Red Sea", "lat": 20.0, "lon": 38.5 },
      { "name": "Arabian Sea", "lat": 12.0, "lon": 55.0 },
      { "name": "Indian Ocean", "lat": 5.0, "lon": 80.0 },
      { "name": "Strait of Malacca", "lat": 2.5, "lon": 100.0 },
      { "name": "Singapore", "lat": 1.264, "lon": 103.820 }
    ],
    "cargoTypes": ["Petrochemicals", "Clean Products", "LPG"],
    "recommendedVesselTypes": ["LR1", "MR"],
    "riskFactors": ["Suez Canal - Congestion possible", "Gulf of Aden - Piracy Alert Zone"],
    "canalTransit": "Suez Canal"
  },
  {
    "id": "R008",
    "name": "Fujairah → Qingdao",
    "origin": "Fujairah",
    "originLat": 25.112,
    "originLon": 56.336,
    "destination": "Qingdao",
    "destLat": 36.067,
    "destLon": 120.322,
    "distanceNM": 5500,
    "typicalDurationDays": 16,
    "waypoints": [
      { "name": "Fujairah", "lat": 25.112, "lon": 56.336 },
      { "name": "Arabian Sea", "lat": 18.0, "lon": 65.0 },
      { "name": "Indian Ocean", "lat": 8.0, "lon": 78.0 },
      { "name": "Strait of Malacca", "lat": 2.5, "lon": 100.0 },
      { "name": "South China Sea", "lat": 15.0, "lon": 112.0 },
      { "name": "East China Sea", "lat": 30.0, "lon": 122.0 },
      { "name": "Qingdao", "lat": 36.067, "lon": 120.322 }
    ],
    "cargoTypes": ["Crude Oil", "Fuel Oil"],
    "recommendedVesselTypes": ["VLCC", "Suezmax"],
    "riskFactors": ["Strait of Malacca - High traffic density", "South China Sea - Weather alerts"],
    "canalTransit": null
  },
  {
    "id": "R009",
    "name": "Mongstad → Jamnagar",
    "origin": "Mongstad",
    "originLat": 60.810,
    "originLon": 5.028,
    "destination": "Jamnagar",
    "destLat": 22.457,
    "destLon": 70.067,
    "distanceNM": 7100,
    "typicalDurationDays": 20,
    "waypoints": [
      { "name": "Mongstad", "lat": 60.810, "lon": 5.028 },
      { "name": "North Sea", "lat": 55.0, "lon": 3.0 },
      { "name": "English Channel", "lat": 50.0, "lon": 0.0 },
      { "name": "Bay of Biscay", "lat": 45.0, "lon": -5.0 },
      { "name": "Strait of Gibraltar", "lat": 35.97, "lon": -5.5 },
      { "name": "Mediterranean", "lat": 35.5, "lon": 18.0 },
      { "name": "Suez Canal", "lat": 30.0, "lon": 32.3 },
      { "name": "Red Sea", "lat": 20.0, "lon": 38.5 },
      { "name": "Arabian Sea", "lat": 15.0, "lon": 60.0 },
      { "name": "Jamnagar", "lat": 22.457, "lon": 70.067 }
    ],
    "cargoTypes": ["Crude Oil", "North Sea Blend"],
    "recommendedVesselTypes": ["Suezmax", "VLCC"],
    "riskFactors": ["Suez Canal - Congestion possible", "Gulf of Aden - Piracy Alert Zone"],
    "canalTransit": "Suez Canal"
  },
  {
    "id": "R010",
    "name": "Houston → Rotterdam",
    "origin": "Houston",
    "originLat": 29.748,
    "originLon": -95.273,
    "destination": "Rotterdam",
    "destLat": 51.922,
    "destLon": 4.479,
    "distanceNM": 5100,
    "typicalDurationDays": 15,
    "waypoints": [
      { "name": "Houston", "lat": 29.748, "lon": -95.273 },
      { "name": "Gulf of Mexico", "lat": 25.0, "lon": -88.0 },
      { "name": "Florida Strait", "lat": 24.0, "lon": -80.0 },
      { "name": "Mid-Atlantic", "lat": 38.0, "lon": -40.0 },
      { "name": "English Channel", "lat": 50.0, "lon": 0.0 },
      { "name": "Rotterdam", "lat": 51.922, "lon": 4.479 }
    ],
    "cargoTypes": ["Crude Oil", "Clean Products", "LPG"],
    "recommendedVesselTypes": ["Suezmax", "Aframax", "MR"],
    "riskFactors": ["North Atlantic - Rough seas in winter"],
    "canalTransit": null
  }
]
